escrita/experimental/NOAA-15-11457.txt

Pass details for NOAA 15 (orbit 11457)
Observer: embu_das_artes, Sao Paulo, Brazil
LAT:-23,62 LON:-46,65
AOS: 2019/10/18 06:44:01 Local
LOS: 2019/10/18 06:59:12 Local
----------------------------------------------
 Time                  Az      El  Range Footp
----------------------------------------------
 2019/10/18 06:44:01  15,21   0,00  3295  6100
 2019/10/18 06:44:46  15,36   2,90  2990  6100
 2019/10/18 06:45:32  15,53   6,15  2686  6100
 2019/10/18 06:46:17  15,76   9,87  2383  6100
 2019/10/18 06:47:03  16,07  14,27  2085  6101
 2019/10/18 06:47:49  16,51  19,67  1793  6103
 2019/10/18 06:48:34  17,18  26,58  1513  6104
 2019/10/18 06:49:20  18,33  35,90  1253  6106
 2019/10/18 06:50:05  20,68  48,97  1028  6108
 2019/10/18 06:50:51  27,91  67,16   868  6110
 2019/10/18 06:51:36 115,23  83,94   813  6112
 2019/10/18 06:52:22 180,28  65,11   882  6115
 2019/10/18 06:53:08 186,49  47,53  1051  6118
 2019/10/18 06:53:53 188,63  34,96  1280  6120
 2019/10/18 06:54:39 189,67  25,98  1544  6124
 2019/10/18 06:55:24 190,26  19,28  1825  6127
 2019/10/18 06:56:10 190,62  14,02  2118  6130
 2019/10/18 06:56:56 190,85   9,71  2416  6133
 2019/10/18 06:57:41 190,99   6,06  2718  6136
 2019/10/18 06:58:27 191,07   2,86  3022  6140
